{"placePoints":[{"importSource":"NAPTAN","primaryCode":"9100MNCRPIC","placePointType":102,"localityName":"Manchester City Centre","country":"UK","hasResourceStatus":false,"name":"Manchester Piccadilly Rail Station","lat":53.477372437,"lng":-2.230909978},{"importSource":"NAPTAN","primaryCode":"9400ZZLUPCC","placePointType":101,"localityName":"Piccadilly Circus","country":"UK","hasResourceStatus":false,"name":"Piccadilly Circus Underground Station","lat":51.510054832,"lng":-0.133793872},{"importSource":"NAPTAN","primaryCode":"9400ZZMAPIC","placePointType":101,"localityName":"Manchester City Centre","country":"UK","hasResourceStatus":false,"name":"Piccadilly (Manchester Metrolink)","lat":53.477308147,"lng":-2.231617803},{"importSource":"NAPTAN","primaryCode":"9400ZZMAPGD","placePointType":101,"localityName":"Piccadilly Gardens","country":"UK","hasResourceStatus":false,"name":"Piccadilly Gardens (Manchester Metrolink)","lat":53.480067021,"lng":-2.236545164},{"importSource":"UK_NPTG","primaryCode":"25870401","placePointType":5,"country":"UK","hasResourceStatus":false,"name":"Piccadilly Circus","lat":51.50990613,"lng":-0.13462140},{"importSource":"UK_NPTG","primaryCode":"25885866","placePointType":5,"localityName":"Warwicks","country":"UK","hasResourceStatus":false,"name":"Piccadilly","lat":52.57938738,"lng":-1.66458442},{"importSource":"UK_NPTG","primaryCode":"25882950","placePointType":5,"localityName":"Swinton","country":"UK","hasResourceStatus":false,"name":"Piccadilly","lat":53.47820538,"lng":-1.32010525},{"importSource":"UK_NPTG","primaryCode":"25870559","placePointType":5,"country":"UK","hasResourceStatus":false,"name":"Piccadilly Gardens","lat":53.48030075,"lng":-2.23653140},{"importSource":"UK_OS","primaryCode":"20377298","placePointType":1,"localityName":"Mayfield And Five Ashes","country":"UK","hasResourceStatus":false,"name":"Piccadilly Lane","lat":51.01206146,"lng":0.26994095},{"importSource":"UK_OS","primaryCode":"20377280","placePointType":1,"localityName":"West End","country":"UK","hasResourceStatus":false,"name":"Piccadilly, London","lat":51.50366844,"lng":-0.14938996},{"importSource":"UK_OS","primaryCode":"20377289","placePointType":1,"localityName":"West End","country":"UK","hasResourceStatus":false,"name":"Piccadilly, London","lat":51.50590431,"lng":-0.14463062},{"importSource":"UK_OS","primaryCode":"20377288","placePointType":1,"localityName":"St. James's","country":"UK","hasResourceStatus":false,"name":"Piccadilly, London","lat":51.50681851,"lng":-0.14273460},{"importSource":"UK_OS","primaryCode":"20377291","placePointType":1,"localityName":"St. James's","country":"UK","hasResourceStatus":false,"name":"Piccadilly Circus, London","lat":51.50980449,"lng":-0.13483125},{"importSource":"UK_OS","primaryCode":"20377292","placePointType":1,"localityName":"West End","country":"UK","hasResourceStatus":false,"name":"Piccadilly Circus, London","lat":51.51000586,"lng":-0.13505360}],"sourceName":"UrbanThings","sourceIconURL":"http://static.fatattitude.com/transitplatform/logo_pb_urbanthings_208x32.png"}